[
  {
    "title": "Student Union Building",
    "buildingnum": "",
    "abbr": "",
    "campus": "Albuquerque",
    "keywords": "food dining dine",
    "longitude": "-106.620072",
    "latitude": "35.083631",
    "image": "http://sub.unm.edu/pictures/SOUTHSIDESUB.jpg",
    "link": "http://sub.unm.edu/dining/index.html",
    "id": "subdining",
    "description": "There are various options for you to chose from when dining at the New Mexico Student Union Building. Explore your options! "
  },
  {
    "title": "La Posada Dining Hall",
    "buildingnum": "",
    "abbr": "",
    "campus": "Albuquerque",
    "keywords": "food dining dine",
    "longitude": "-106.616231",
    "latitude": "35.085624",
    "image": "http://housing.unm.edu/meal-plans/images/dsc03215-1.JPG",
    "link": "http://housing.unm.edu/meal-plans/la-posada.html",
    "id": "laposadadining",
    "description": "La Posada (LaPo) is the main residence hall dining facility.  La Posada offers extensive flexible and late-night serving hours and provides great food and atmosphere for you.  Surrounding an attractive atrium, La Posada offers multiple seating areas so you can eat with friends in small or large groups.  While you eat, you can connect to the Internet with your laptop and watch tv on their large screens.  From traditional American entrees and ethnically-inspired foods to vegetarian selections, La Posada supplies you with a diverse range of satisfying eating options."
  },
  {
    "title": "Danes Deli @ Dane Smith Hall",
    "buildingnum": "",
    "abbr": "",
    "campus": "Albuquerque",
    "keywords": "food dining dine",
    "longitude": "-106.623194",
    "latitude": "35.086265",
    "image": "images/locations/dane-smith-hall.jpg",
    "link": "http://www.dineoncampus.com/unm/show.cfm?cmd=menus",
    "id": "danesmithdining",
    "description": " "
  },
  {
    "title": "Mitchell Hall",
    "buildingnum": "",
    "abbr": "",
    "campus": "Albuquerque",
    "keywords": "food dining dine",
    "longitude": "-106.623377",
    "latitude": "35.084263",
    "image": "images/locations/mitchell-hall.jpg",
    "link": "http://www.dineoncampus.com/unm/show.cfm?cmd=menus",
    "id": "mitchelldining",
    "description": " "
  },
  {
    "title": "Starbucks Zimmerman",
    "buildingnum": "",
    "abbr": "",
    "campus": "Albuquerque",
    "keywords": "food dining dine coffee",
    "longitude": "-106.620480",
    "latitude": "35.085211",
    "image": "http://library.unm.edu/common/images/libraries/zimmerman-exterior1.jpg",
    "link": "",
    "id": "starbuckszimmermandining",
    "description": " "
  },
  {
    "title": "Satellite Coffee @ UNM Book Store",
    "buildingnum": "",
    "abbr": "",
    "campus": "Albuquerque",
    "keywords": "food dining dine coffee",
    "longitude": "-106.620083",
    "latitude": "35.081366",
    "image": "http://upload.wikimedia.org/wikipedia/commons/2/21/Unm_bookstore.jpg",
    "link": "http://www.southwestrestaurants.com/restaurant/satellite-coffee-6/",
    "id": "satellitebookstoredining",
    "description": " "
  },
  {
    "title": "SRC Corner Store",
    "buildingnum": "",
    "abbr": "",
    "campus": "Albuquerque",
    "keywords": "food dining dine coffee",
    "longitude": "-106.616454",
    "latitude": "35.084911",
    "image": "",
    "link": "http://www.unm.edu/~lapo/srccstore.htm",
    "id": "srccornerstoredining",
    "description": "Student Residence Center\r\nBuilding #89"
  },
  {
    "title": "Outtakes Law School",
    "buildingnum": "",
    "abbr": "",
    "campus": "Albuquerque",
    "keywords": "food dining dine coffee",
    "longitude": "-106.618475",
    "latitude": "35.09348",
    "image": "",
    "link": "",
    "id": "outtakeslawschooldining",
    "description": " "
  },
  {
    "title": "Outtakes West",
    "buildingnum": "",
    "abbr": "",
    "campus": "Albuquerque",
    "keywords": "food dining dine coffee",
    "longitude": "-106.624657",
    "latitude": "35.082077",
    "image": "",
    "link": "",
    "id": "outtakeswestdining",
    "description": " "
  },
  {
    "title": "La Mantanita Grab and Go",
    "buildingnum": "",
    "abbr": "",
    "campus": "Albuquerque",
    "keywords": "food dining dine coffee",
    "longitude": "-106.619676",
    "latitude": "35.081431",
    "image": "http://www.lamontanita.coop/images/stories/unm.jpg",
    "link": "http://www.lamontanita.coop/index.php?option=com_content&view=article&id=83&Itemid=102",
    "id": "lamantanitadining",
    "description": " "
  },
  {
    "title": "UNM Faculty/Staff Club",
    "buildingnum": "",
    "abbr": "",
    "campus": "Albuquerque",
    "keywords": "food dining dine coffee",
    "longitude": "-106.620067",
    "latitude": "35.087186",
    "image": "http://fsca.unm.edu/artwork/club-pic.jpg",
    "link": "http://fsca.unm.edu/",
    "id": "facultyclubdining",
    "description": "923 Las Lomas, Just North of the Anderson School of Management"
  },
  {
    "title": "Times Square Deli - North Campus",
    "buildingnum": "201",
    "abbr": "SOM2",
    "campus": "Albuquerque",
    "keywords": "food",
    "longitude": "-106.617367",
    "latitude": "35.089367",
    "image": "http://hsc.unm.edu/webdev/gallery/photos/th00012.jpg",
    "link": "",
    "id": "timessquaredelib201",
    "description": "Times Square Deli Mart is located in Medical Building #2. It is open from 7:30am until 2:00pm and serves a variety of great food, including breakfast and lunch items.\r\n"
  },
  {
    "title": "Espresso Cafe",
    "buildingnum": "200",
    "abbr": "DOMCTR",
    "campus": "Albuquerque",
    "keywords": "",
    "longitude": "-106.618065",
    "latitude": "35.091067",
    "image": "",
    "link": "http://m.health.unm.edu/webcams/coffee.html",
    "id": "espressocafeb200",
    "description": "Domenici Center Espresso Cafe is open M-F, 7:30 AM to 1:00 PM. Coffee and coffee drinks available. Located in the basement.\r\n"
  },
  {
    "title": "UNMH Cafeteria and Restaurants",
    "buildingnum": "235",
    "abbr": "",
    "campus": "Albuquerque",
    "keywords": "UNMH",
    "longitude": "-106.617042",
    "latitude": "35.088566",
    "image": "",
    "link": "http://hospitals.unm.edu/ptguide/food_venues.shtml",
    "id": "unmhcafeteriab235",
    "description": "There are several food options in the UNM Hospital, including cafeteria, gift shops and restaurants.\r\n"
  }
]