[{"title":"1.5 mile LoboTrail on south campus","buildingnum":"","abbr":"","campus":"Albuquerque","keywords":"","longitude":"-106.628269","latitude":"35.063694","image":"","link":"","id":"lobotrail1","description":"Follow the <font style=\"color: #ff6600;font-weight: bold\">orange<\/font> trail. About 25 minutes walking."},{"title":"2 mile LoboTrail on main campus","buildingnum":"","abbr":"","campus":"Albuquerque","keywords":"","longitude":"-106.622575","latitude":"35.086775","image":"","link":"","id":"lobotrail2","description":"Follow the <font style=\"color: #ffcc00;font-weight: bold\">gold<\/font> trail. About 33 minutes walking."},{"title":"2 mile LoboTrail on north campus","buildingnum":"","abbr":"","campus":"Albuquerque","keywords":"","longitude":"-106.618500","latitude":"35.092833","image":"","link":"","id":"lobotrail3","description":"Follow the <font style=\"color: #ffcc33;font-weight: bold\">gold<\/font> trail. About 33 minutes walking."},{"title":"2 mile LoboTrail on south campus","buildingnum":"","abbr":"","campus":"Albuquerque","keywords":"","longitude":"-106.628768","latitude":"35.065483","image":"","link":"","id":"lobotrail4","description":"Follow the <font style=\"color: #ffcc33;font-weight: bold\">gold<\/font> trail. About 33 minutes walking."},{"title":"3 mile LoboTrail around main campus","buildingnum":"","abbr":"","campus":"Albuquerque","keywords":"","longitude":"-106.624128","latitude":"35.089561","image":"","link":"","id":"lobotrail5","description":"Follow the <font style=\"color: #000066;font-weight: bold\">dark blue<\/font> trail. About 40 minutes walking."},{"title":"3 mile LoboTrail on north campus","buildingnum":"","abbr":"","campus":"Albuquerque","keywords":"","longitude":"-106.617562","latitude":"35.092475","image":"","link":"","id":"lobotrail6","description":"Follow the <font style=\"color: #000066;font-weight: bold\">dark blue<\/font> trail. About 40 minutes walking."},{"title":"3 mile LoboTrail on south campus","buildingnum":"","abbr":"","campus":"Albuquerque","keywords":"","longitude":"-106.631616","latitude":"35.063079","image":"","link":"","id":"lobotrail7","description":"Follow the <font style=\"color: #000066;font-weight: bold\">dark blue<\/font> trail. About 40 minutes walking."},{"title":"0.5 mile LoboTrail on south campus","buildingnum":"","abbr":"","campus":"Albuquerque","keywords":"","longitude":"-106.632995","latitude":"35.067231","image":"","link":"","id":"lobotrail8","description":"Follow the <font style=\"color: #000000;font-weight: bold\">black<\/font> trail. About 8 minutes walking."},{"title":"1 mile LoboTrail on main campus","buildingnum":"","abbr":"","campus":"Albuquerque","keywords":"","longitude":"-106.615110","latitude":"35.082061","image":"","link":"","id":"lobotrail9","description":"Follow the <font style=\"color: #990000;font-weight: bold\">dark red<\/font> trail. About 17 minutes walking."},{"title":"1 mile LoboTrail on main campus","buildingnum":"","abbr":"","campus":"Albuquerque","keywords":"","longitude":"-106.621762","latitude":"35.085055","image":"","link":"","id":"lobotrail10","description":"Follow the <font style=\"color: #cc0000;font-weight: bold\">red<\/font> trail. About 17 minutes walking."},{"title":"1 mile LoboTrail west of business center","buildingnum":"","abbr":"","campus":"Albuquerque","keywords":"","longitude":"-106.627952","latitude":"35.088303","image":"","link":"","id":"lobotrail11","description":"Follow the <font style=\"color: #cc0000;font-weight: bold\">red<\/font> trail. About 17 minutes walking."},{"title":"1 mile LoboTrail on south campus","buildingnum":"","abbr":"","campus":"Albuquerque","keywords":"","longitude":"-106.6346","latitude":"35.07035","image":"","link":"","id":"lobotrail12","description":"Follow the <font style=\"color: #cc0000;font-weight: bold\">red<\/font> trail. About 17 minutes walking."},{"title":"1.5 mile LoboTrail on main campus","buildingnum":"","abbr":"","campus":"Albuquerque","keywords":"","longitude":"-106.620829","latitude":"35.082966","image":"","link":"","id":"lobotrail13","description":"Follow the <font style=\"color: #ff6600;font-weight: bold\">orange<\/font> trail. About 25 minutes walking."},{"title":"1.5 mile LoboTrail on north campus","buildingnum":"","abbr":"","campus":"Albuquerque","keywords":"","longitude":"-106.620131","latitude":"35.090928","image":"","link":"","id":"lobotrail14","description":"Follow the <font style=\"color: #ff6600;font-weight: bold\">orange<\/font> trail. About 25 minutes walking."},{"title":"1.5 mile LoboTrail west of business center","buildingnum":"","abbr":"","campus":"Albuquerque","keywords":"","longitude":"-106.626847","latitude":"35.086047","image":"","link":"","id":"lobotrail15","description":"Follow the <font style=\"color: #ff6600;font-weight: bold\">orange<\/font> trail. About 25 minutes walking."}]